Address,AddrCoor,Latitude,Longitude
10 block Mount Vernon Ct,"10 Mount Vernon Ct, Madison, Wisconsin, 53719",43.04269327477061,-89.5020567571699
900 Harrington Dr,"900 Harrington Dr, Madison, Wisconsin, 53718",43.08661801644802,-89.2577437411933
500 W Johnson,"500 W Johnson St, Madison, Wisconsin, 53715",43.07203608700184,-89.40216732903386
East Towne Mall,East Towne Mall,43.125440000000026,-89.30646999999999
2300 Upham St.(block),"2300 Upham St, Madison, Wisconsin, 53704",43.10008752895054,-89.35634830481482
6600 block Radford Dr,"6600 Radford Dr, Madison, Wisconsin, 53718",43.09760342160817,-89.26578151381563
4500 block Bonner Lane,"4500 Bonner Ln, Madison, Wisconsin, 53704",43.14220725426954,-89.38656364326167
2222 E. Washington Ave.,"2222 E Washington Ave, Madison, Wisconsin, 53704",43.096742018407845,-89.35346780154566
6700 block Schroeder Rd.,"6700 Schroeder Rd, Madison, Wisconsin, 53711",43.046331401027025,-89.49789674864265
2800 block N. Sherman Ave.,"2800 N Sherman Ave, Madison, Wisconsin, 53704",43.1263234885488,-89.36364686520808
900 block Blaine Dr.,"900 Blaine Dr, Madison, Wisconsin, 53704",43.13521496801997,-89.38311944531772
2300 block Brentwood Parkway,"2300 Brentwood Pkwy, Madison, Wisconsin, 53704",43.123439969450786,-89.3673429642569
West Towne Mall,West Towne Mall,43.06016000000005,-89.50782999999996
2100 block Pike Dr,"2100 Pike Dr, Madison, Wisconsin, 53713",43.02950454731968,-89.41691935967388
3500 block Milwaukee St.,"3500 Milwaukee St, Madison, Wisconsin, 53714",43.09827946750924,-89.32763053249077
400 Block W. Gilman St,"400 W Gilman St, Madison, Wisconsin, 53703",43.07482741928983,-89.39347833077154
1000 East Johnson Street,"1000 E Johnson St, Madison, Wisconsin, 53703",43.08585750458764,-89.3742765446938
7035 Littlemore Dr.,"7035 Littlemore Dr, Madison, Wisconsin, 53718",43.09817142226006,-89.25412727274389
3100 block Ridgeway Ave.,"3100 Ridgeway Ave, Madison, Wisconsin, 53704",43.10907892460731,-89.33791405209618
Northport Dr.,"Northport Dr, Madison, Wisconsin, 53704",43.15234564234142,-89.40347913825167
2201 S Park St,"2201 S Park St, Madison, Wisconsin, 53713",43.041473999999994,-89.39391385688754
6700 Schroeder Road,"6700 Schroeder Rd, Madison, Wisconsin, 53711",43.046331401027025,-89.49789674864265
Sherman Terrace,"Sherman Terrace, Madison, Wisconsin",43.096730000000036,-89.36774999999994
N. Fish Hatchery Rd.,"Fish Hatchery Rd, Madison, Wisconsin, 53715",43.0532280431198,-89.39903369363628
1900 block E. Washington Ave.,"1900 E Washington Ave, Madison, Wisconsin, 53704",43.092424171821655,-89.35925365739493
2164 W Beltline Hwy,"2164 W Beltline Hwy, Madison, Wisconsin, 53713",43.035488488313646,-89.41578907660568
6200 block Jacobs Way,"6200 Jacobs Way, Madison, Wisconsin, 53711",43.03676768691877,-89.48871280802034
2100 block Leland Dr.,"2100 Leland Dr, Madison, Wisconsin, 53711",43.03078011063966,-89.47980918382837
2800 block Ashford Ln,"2800 Ashford Ln, Madison, Wisconsin, 53713",43.03377859779032,-89.42488380713093
2400 block W. Broadway,"2400 W Broadway, Madison, Wisconsin, 53713",43.046141907871075,-89.35215122274788
2200 Cypress Way,"2200 Cypress Way, Madison, Wisconsin, 53713",43.04165543028294,-89.39730032198727
6700 Jacobs Way,"6700 Jacobs Way, Madison, Wisconsin, 53711",43.03813239055027,-89.49685711090038
3100 block Churchill Dr,"3100 Churchill Dr, Madison, Wisconsin, 53713",43.02990189159287,-89.4222778731584
Parkwood Lane,"Parkwood Ln, Madison, Wisconsin, 53714",43.10483138549292,-89.31122926017773
6700 Block Jacobs Way,"6700 Jacobs Way, Madison, Wisconsin, 53711",43.03813239055027,-89.49685711090038
N. Lake St.,"N Lake St, Madison, Wisconsin, 53715",43.072874810888166,-89.3974377582288
3000 block Darbo Dr.,"3000 Darbo Dr, Madison, Wisconsin, 53714",43.1035970669437,-89.34085016418408
2813 N. Sherman Ave.,"2813 N Sherman Ave, Madison, Wisconsin, 53704",43.127718260856625,-89.36349900019835
5700 block Barton Rd.,"5700 Barton Rd, Madison, Wisconsin, 53711",43.03594883007417,-89.47782263622149
66 West Towne Mall,"66 West Towne Mall, Madison, Wisconsin, 53719",43.05983205867436,-89.50642839537315
800 W. Olin Ave.,"800 W Olin Ave, Madison, Wisconsin, 53715",43.05411767636147,-89.39531760615627
400 block Starling Ln,"400 Starling Ln, Madison, Wisconsin, 53704",43.13561429897819,-89.35093434895397
2000 block of Frisch Rd.,"2000 Frisch Rd, Madison, Wisconsin, 53711",43.03171300802415,-89.49364357215116
7500 block of Mid Town Rd,"7500 Mid Town Rd, Madison, Wisconsin, 53719",43.03166319701072,-89.51498873116445
Milwaukee St.,"Milwaukee St, Madison, Wisconsin, 53718",43.0996820956624,-89.2629992419302
10 Block of Rustic Woods Ct,"10 Rustic Woods Ct, Madison, Wisconsin, 53716",43.07048646768412,-89.28107192200935
201 W. Mifflin St.,"201 W Mifflin St, Madison, Wisconsin, 53703",43.07374140048484,-89.38774154244345
6600 block Berkshire Rd.,"6600 Berkshire Rd, Madison, Wisconsin, 53711",43.04574640027936,-89.49396790027934
900 block Jana Lane,"900 Jana Ln, Madison, Wisconsin, 53704",43.11017429569858,-89.29940729569857
1903 S. Park St.,"1903 S Park St, Madison, Wisconsin, 53713",43.04525070430143,-89.39394120430143
2300 block Allied Dr.,"2300 Allied Dr, Madison, Wisconsin, 53711",43.02889695353907,-89.45950695342124
3301 City View Drive,"3301 City View Dr, Madison, Wisconsin, 53718",43.138257326418,-89.28862345902844
2000 Block of Westbrook Ln,"2000 Westbrook Ln, Madison, Wisconsin, 53711",43.03173270430143,-89.49088679569857
3500 block Albert Ct.,"3500 Albert Ct, Madison, Wisconsin, 53714",43.114229057830705,-89.32711139531452
2900 Traceway Dr.,"2900 Traceway Dr, Madison, Wisconsin, 53713",43.03019375506861,-89.4188262550686
Raymond Rd.,"Raymond Rd, Madison, Wisconsin, 53719",43.02739239906176,-89.51478936197029
100 block State Street,"100 State St, Madison, Wisconsin, 53703",43.074733493219334,-89.387019
W. Gilman St.,"W Gilman St, Madison, Wisconsin, 53703",43.075635319665054,-89.39224381046056
1300 Forster Dr,"1300 Forster Dr, Madison, Wisconsin, 53704",43.131192222481694,-89.37581660117561
Horned Owl Court,"Horned Owl Ct, Madison, Wisconsin, 53718",43.03729799999999,-89.29440224999999
2900 block Turbot Dr.,"2900 Turbot Dr, Madison, Wisconsin, 53713",43.02967457633941,-89.41789619937173
5800 block Russett Rd.,"5800 Russett Rd, Madison, Wisconsin, 53711",43.03283624545014,-89.48098283910531
4501 Verona Rd.,"4501 Verona Rd, Madison, Wisconsin, 53711",43.03564277710788,-89.45355634260507
500 block Northport Dr.,"500 Northport Dr, Madison, Wisconsin, 53704",43.14078500988533,-89.39029684561315
3100 block Muir Field Rd.,"3100 Muir Field Rd, Madison, Wisconsin, 53719",43.01820909367864,-89.50868971896412
1250 McKenna Blvd.,"1250 McKenna Blvd, Madison, Wisconsin, 53719",43.03899586283336,-89.5024763194367
Great Grey Drive / Owl Creek Dr,"Great Gray Dr & Owl Creek Dr, Madison, Wisconsin, 53718",43.036524000000014,-89.29162799999999
Brandie Rd.,"Brandie Rd, Madison, Wisconsin, 53714",43.10863790125169,-89.30727932685531
1400 block Spaight St.,"1400 Spaight St, Madison, Wisconsin, 53703",43.08454542333052,-89.35903342062552
800 Vera Ct,"800 Vera Ct, Madison, Wisconsin, 53704",43.13482081005561,-89.38433291340928
4501 Verona Rd,"4501 Verona Rd, Madison, Wisconsin, 53711",43.03564277710788,-89.45355634260507
2000 block Westbrook Lane,"2000 Westbrook Ln, Madison, Wisconsin, 53711",43.03173270430143,-89.49088679569857
429 State Street,"429 State St, Madison, Wisconsin, 53703",43.074772492353965,-89.39286033527613
1700 block Thierer Rd.,"1700 Thierer Rd, Madison, Wisconsin, 53704",43.121299317521824,-89.31123691604309
City Wide,"Madison, Wisconsin",43.07313000000005,-89.38643999999994
4100 Block Melody Lane,"4100 Melody Ln, Madison, Wisconsin, 53704",43.13073742041916,-89.31347579059344
Ruskin St.,"Ruskin St, Madison, Wisconsin, 53704",43.119963216492444,-89.36169795262367
702 Pflaum Rd.,"702 Pflaum Rd, Madison, Wisconsin, 53716",43.06208650894319,-89.31984202553522
400 W. Gilman St,"400 W Gilman St, Madison, Wisconsin, 53703",43.07482741928983,-89.39347833077154
802 Atlas Ave,"802 Atlas Ave, Madison, Wisconsin, 53714",43.08532453895233,-89.30899925454418
Beld St and Bram St,"Beld St & Bram St, Madison, Wisconsin, 53713",43.04573999999999,-89.3930985
N. Wickham Ct.,"N Wickham Ct, Madison, Wisconsin, 53711",43.03021965307933,-89.49838827067836
3500 E Washington Ave,"3500 E Washington Ave, Madison, Wisconsin, 53704",43.11453507689412,-89.32851345602734
6800 block East Pass,"6800 East Pass, Madison, Wisconsin, 53719",43.01268344231813,-89.5001691057791
Raymond Rd.,"Raymond Rd, Madison, Wisconsin, 53719",43.02739239906176,-89.51478936197029
Shasta Dr.,"Shasta Dr, Madison, Wisconsin, 53704",43.13253581548655,-89.37947825421712
3554 E Washington Ave,"3554 E Washington Ave, Madison, Wisconsin, 53704",43.115576792688465,-89.32686526146907
101 S. Gammon Rd.,"101 S Gammon Rd, Madison, Wisconsin, 53717",43.06449880821169,-89.5025428772305
800 Brandie Rd,"800 Brandie Rd, Madison, Wisconsin, 53714",43.10865548362,-89.30733598138214
5800 block Balsam Rd.,"5800 Balsam Rd, Madison, Wisconsin, 53711",43.03091501625706,-89.47982823664155
3500 block Memorial Dr.,"3500 Memorial Dr, Madison, Wisconsin, 53704",43.13028585655862,-89.40694028926423
4501 Verona Rd.,"4501 Verona Rd, Madison, Wisconsin, 53711",43.03564277710788,-89.45355634260507
319 N. Frances St.,"319 N Frances St, Madison, Wisconsin, 53703",43.07284732944774,-89.39579093738836
5800 Raymond Rd,"5800 Raymond Rd, Madison, Wisconsin, 53711",43.032039382767394,-89.47987649999999
900 block Vernon Ave,"900 Vernon Ave, Madison, Wisconsin, 53714",43.085163262832374,-89.30568555216668
Wittwer Rd and Waldbridge Ave,"Wittwer Rd & N Walbridge Ave, Madison, Wisconsin, 53714",43.10277299999999,-89.3114595
10 block Sherman Terrace,"10 Sherman Ter, Madison, Wisconsin, 53704",43.096836121299475,-89.36808345100702
5800 Russett Rd.,"5800 Russett Rd, Madison, Wisconsin, 53711",43.03283624545014,-89.48098283910531
800 Vernon Ave,"800 Vernon Ave, Madison, Wisconsin, 53714",43.08632079977397,-89.30573507255103
Worthington Ave.,"Worthington Ave, Madison, Wisconsin, 53714",43.102521999241745,-89.33657981071244
1600 Lake Point Dr,"1600 Lake Point Dr, Madison, Wisconsin, 53713",43.04821192563635,-89.34197058021996
2400 McKenna Blvd,"2400 McKenna Blvd, Madison, Wisconsin, 53711",43.027642748369594,-89.49672041040145
700 block University Ave.,"700 University Ave, Madison, Wisconsin, 53715",43.07321535323192,-89.39749599701597
3000 block Worthington Ave.,"3000 Worthington Ave, Madison, Wisconsin, 53714",43.102655237339555,-89.33988136883299
600 block University Ave.,"600 University Ave, Madison, Wisconsin, 53715",43.07319806181074,-89.39589774318647
Waunona Woods Ct,"Waunona Woods Ct, Madison, Wisconsin, 53713",43.04954531112512,-89.3414901979101
4600 block Hayes Rd.,"4600 Hayes Rd, Madison, Wisconsin, 53704",43.14252096817456,-89.30556332417191
E. Broadway,"E Broadway, Madison, Wisconsin, 53718",43.04339979510501,-89.26100274160753
1800 block Northport Dr.,"1800 Northport Dr, Madison, Wisconsin, 53704",43.12984527246602,-89.36023800282995
6700 block Schroeder Rd.,"6700 Schroeder Rd, Madison, Wisconsin, 53711",43.046331401027025,-89.49789674864265
E. Washington Ave.,"E Washington Ave, Madison, Wisconsin, 53703",43.09012075391277,-89.36216852956565
418 S Gammon,"418 S Gammon Rd, Madison, Wisconsin, 53719",43.058723017467806,-89.50297654585206
200 block W Gorham St,"200 E Gorham St, Madison, Wisconsin, 53703",43.079007650916836,-89.38585355518201
2000 block McKenna Blvd.,"2000 McKenna Blvd, Madison, Wisconsin, 53711",43.031671110639394,-89.49699918382863
2222 S. Park St.,"2222 S Park St, Madison, Wisconsin, 53713",43.041483,-89.39413759925536
100 block E. Main St.,"100 W Main St, Madison, Wisconsin, 53703",43.07296305229567,-89.38431603973646
1800 block W. Beltline Highway,"1800 W Beltline Hwy, Madison, Wisconsin, 53713",43.035268317357364,-89.41169513927555
Mount Vernon Ct,"Mount Vernon Ct, Madison, Wisconsin, 53719",43.042850095330216,-89.50181251556597
6200 block Raymond Rd.,"6200 Raymond Rd, Madison, Wisconsin, 53711",43.03201997287331,-89.48891124667054
500 block Troy Dr.,"500 Troy Dr, Madison, Wisconsin, 53704",43.13383887071811,-89.38962906833865
4300 Britta Pkway,"4300 Britta Pkwy, Madison, Wisconsin, 53711",43.03431313810813,-89.4486424074097
1602 W. Beltline Hwy,"1602 W Beltline Hwy, Madison, Wisconsin, 53713",43.03512446883794,-89.40933013627445
4726 East Washington Ave.,"4726 E Washington Ave, Madison, Wisconsin, 53704",43.13246511881799,-89.3026576643485
E. Johnson St.,"E Johnson St, Madison, Wisconsin, 53703",43.084617603744,-89.3759687706339
700 block of Pinecrest Dr,"700 Pinecrest Dr, Madison, Wisconsin, 53714",43.10794620836391,-89.33401265281415
6200 block Raymond Rd.,"6200 Raymond Rd, Madison, Wisconsin, 53711",43.03201997287331,-89.48891124667054
4700 Crescent Rd,"4700 Crescent Rd, Madison, Wisconsin, 53711",43.02493654423376,-89.45862516975171
N Thompson & Hwy 30,"N Thompson Dr & WI-30 E, Madison, Wisconsin, 53714",43.105571999999995,-89.300592
6800 block Park Edge Dr,"6800 Park Edge Dr, Madison, Wisconsin, 53719",43.04208381346266,-89.50101945074144
Sprecher Road and Wyalusing,"Sprecher Rd & Wyalusing Dr, Madison, Wisconsin, 53718",43.08782400000001,-89.2667115
400 West Gilman Street,"400 W Gilman St, Madison, Wisconsin, 53703",43.07482741928983,-89.39347833077154
3000 block of Darbo Drive,"3000 Darbo Dr, Madison, Wisconsin, 53714",43.1035970669437,-89.34085016418408
Lake Street @ Langdon Street,"N Lake St & Langdon St, Madison, Wisconsin, 53706",43.07580899999999,-89.397279
700 block of Bewick,"700 Bewick Dr, Madison, Wisconsin, 53714",43.10672064468167,-89.30365289422029
4600 block Femrite Dr.,"4600 Femrite Dr, Madison, Wisconsin, 53716",43.05150738016292,-89.3041910879403
1400 block Northport Dr.,"1400 Northport Dr, Madison, Wisconsin, 53704",43.134922843679725,-89.37305137670134
4514 Nakoosa Trl,"Nakoosa Trl, Madison, Wisconsin, 53714",43.11006808261261,-89.31067602281537
400 block N. Frances St.,"400 N Frances St, Madison, Wisconsin, 53703",43.07317826673804,-89.39587524006424
1900 block Northport Dr.,"1900 Northport Dr, Madison, Wisconsin, 53704",43.12915142901041,-89.35881612687226
Gammon Rd.,"S Gammon Rd, Madison, Wisconsin, 53719",43.058364499336534,-89.5029286419188
400 E Wilson St,"400 E Wilson St, Madison, Wisconsin, 53703",43.07532924063591,-89.3775117624981
200 block S. Fair Oaks Ave.,"200 N Fair Oaks Ave, Madison, Wisconsin, 53714",43.10164911230568,-89.33113547055466
West Towne Mall,West Towne Mall,43.06016000000005,-89.50782999999996
Tolman Terrace,"Tolman Ter, Madison, Wisconsin, 53711",43.03683520204552,-89.47582094093615
2800 Blk Ashford Ln,"2800 Ashford Ln, Madison, Wisconsin, 53713",43.03377859779032,-89.42488380713093
700 block State St.,"700 State St, Madison, Wisconsin, 53706",43.07496122237517,-89.39743763792767
N. Burberry Dr.,"N Burberry Dr, Madison, Wisconsin, 53719",43.05169270824564,-89.513870675366
2700 block Anderson St.,"2700 Anderson St, Madison, Wisconsin, 53704",43.12121009970872,-89.34582265119307
2400 block Seminole Highway,"2400 Seminole Hwy, Madison, Wisconsin, 53711",43.02967691701769,-89.44634767972751
3400 N Sherman Ave,"3400 N Sherman Ave, Madison, Wisconsin, 53704",43.131209549425314,-89.36358399373158
3500 block of East Washington Ave,"3500 E Washington Ave, Madison, Wisconsin, 53704",43.11453507689412,-89.32851345602734
2300 block Allied Dr.,"2300 Allied Dr, Madison, Wisconsin, 53711",43.02889695353907,-89.45950695342124
2702 E. Washington Ave.,"2702 E Washington Ave, Madison, Wisconsin, 53704",43.102114772981615,-89.34716220012685
N. Sherman Ave.,"N Sherman Ave, Madison, Wisconsin, 53704",43.13636091389316,-89.36331508678823
Silver Rd.,"Silver Rd, Madison, Wisconsin, 53714",43.09402848928948,-89.31828555395394
453 W. Gilman St.,"453 W Gilman St, Madison, Wisconsin, 53703",43.07363445876866,-89.39502500969485
2100 Winnebago St,"2100 Winnebago St, Madison, Wisconsin, 53704",43.09388711714454,-89.35375669363464
3800 Sycamore Ave,"3800 Sycamore Ave, Madison, Wisconsin, 53714",43.11388567157376,-89.31928319734335
700 block Pinecrest Dr.,"700 Pinecrest Dr, Madison, Wisconsin, 53714",43.10794620836391,-89.33401265281415
2900 block Hoard St.,"2900 Hoard St, Madison, Wisconsin, 53704",43.10521610652741,-89.34298678095578
Waite Lane,"Waite Ln, Madison, Wisconsin, 53711",43.047432000000015,-89.45246699999998
1610 Ruskin St.,"1610 Ruskin St, Madison, Wisconsin, 53704",43.11712871273591,-89.36169591113105
2600 Commercial Avenue,"2600 Commercial Ave, Madison, Wisconsin, 53704",43.10687447852606,-89.34901002147393
500 N Frances St,"500 N Frances St, Madison, Wisconsin, 53703",43.07541886705881,-89.3954031612276
John Nolen Dr.,"John Nolen Dr, Madison, Wisconsin, 53715",43.05826072581423,-89.38408681471091
Kedzie St.,"Kedzie St, Madison, Wisconsin, 53704",43.10610222993068,-89.34753002494581
6713 Schroeder Rd.,"6713 Schroeder Rd, Madison, Wisconsin, 53711",43.0462255128402,-89.49894822300767
2000 Fisher St,"2000 Fisher St, Madison, Wisconsin, 53713",43.04436943663422,-89.39190102306554
10 block Goldenrod Lane,"10 Goldenrod Ln, Madison, Wisconsin, 53719",43.05329758920944,-89.51701506737118
1400 block S. Park St.,"1400 S Park St, Madison, Wisconsin, 53715",43.05177894351831,-89.39495633044947
U.S. Highway 151,"US-151, Madison, Wisconsin, 53703",43.077363728131196,-89.37716326817218
200 Block of State Street,"200 State St, Madison, Wisconsin, 53703",43.07479221348826,-89.38811596386077
1100 S Park St,"1100 S Park St, Madison, Wisconsin, 53715",43.05498323055375,-89.39745802195053
3200 Quincy Ave.,"3200 Quincy Ave, Madison, Wisconsin, 53704",43.11047414462752,-89.33766513410237
1820 Wright St.,"1820 Wright St, Madison, Wisconsin, 53704",43.12393894615959,-89.33028854053792
300 S. Bassett St.,"300 S Bassett St, Madison, Wisconsin, 53703",43.06785749163522,-89.38777211045708
3800 block of Goodland Dr.,"3800 Goodland Dr, Madison, Wisconsin, 53704",43.134388691179154,-89.3774663441737
100 block Powers Ave.,"100 Powers Ave, Madison, Wisconsin, 53714",43.10122426852218,-89.33334704152028
4600 block Verona Rd.,"4600 Verona Rd, Madison, Wisconsin, 53711",43.03544827518581,-89.45542311950085
Kipling Drive and Browning Road,"Kipling Dr & Browning Rd, Madison, Wisconsin, 53704",43.13105999999999,-89.3566215
John Nolen Dr.,"John Nolen Dr, Madison, Wisconsin, 53715",43.05826072581423,-89.38408681471091
3100 Maple Valley Dr,"3100 Maple Valley Dr, Madison, Wisconsin, 53719",43.016965329186675,-89.49747047401121
Green Ave.,"Green Ave, Madison, Wisconsin, 53704",43.13942039550003,-89.39776576279286
1900 block of Prairie Road,"1900 Prairie Rd, Madison, Wisconsin, 53711",43.03276139373749,-89.48885091930428
7000 block Flower Lane,"7000 Flower Ln, Madison, Wisconsin, 53717",43.06783294809758,-89.50264790242741
2500 block Monterey Dr.,"2500 Monterey Dr, Madison, Wisconsin, 53704",43.125425321714296,-89.36843557408578
2400 block Brentwood Pkwy,"2400 Brentwood Pkwy, Madison, Wisconsin, 53704",43.1243202276129,-89.36732106728769
1700 Onsgard Rd,"1700 Onsgard Rd, Madison, Wisconsin, 53704",43.121064553476224,-89.32241553730155
1800 Vahlen St.,"1800 Vahlen St, Madison, Wisconsin, 53704",43.122182482002216,-89.36157300982497
600 block State St.,"600 State St, Madison, Wisconsin, 53703",43.07491628872484,-89.39520617485897
Seminole Hwy / Beltline Frontage,"Seminole Hwy & W Beltline Hwy, Madison, Wisconsin, 53711",43.034426999999994,-89.443629
2300 block Fish Hatchery Rd.,"2300 Fish Hatchery Rd, Madison, Wisconsin, 53713",43.03978997296925,-89.40411323659899
100 S Marquette St,"100 S Marquette St, Madison, Wisconsin, 53704",43.09677746882398,-89.34158753170861
4301 East Towne Blvd.,"4301 East Towne Blvd, Madison, Wisconsin, 53704",43.125476218420054,-89.30860531845481
5200 block Brandenburg Way,"5200 Brandenburg Way, Madison, Wisconsin, 53718",43.029022455030194,-89.29138223422844
214 N. Carroll St.,"214 N Carroll St, Madison, Wisconsin, 53703",43.07568469911723,-89.3877695809335
1754 Thierer Rd.,"1754 Thierer Rd, Madison, Wisconsin, 53704",43.122772782936266,-89.31320985071245
Wheeler Rd.,"Wheeler Rd, Madison, Wisconsin, 53704",43.148308886968195,-89.37357585633883
Wheeler Rd.,"Wheeler Rd, Madison, Wisconsin, 53704",43.148308886968195,-89.37357585633883
4102 Commercial Ave.,"4102 Commercial Ave, Madison, Wisconsin, 53714",43.10806553427781,-89.31469245845153
200 block East Bluff,"200 East Bluff, Madison, Wisconsin, 53704",43.13350470430143,-89.36595329569856
2300 block Huxley St.,"2300 Huxley St, Madison, Wisconsin, 53704",43.1231804468341,-89.359584632108
5400 block Camden Rd.,"5400 Camden Rd, Madison, Wisconsin, 53716",43.0607437857349,-89.31155050288552
3000 block of Todd Drive,"3000 Todd Dr, Madison, Wisconsin, 53713",43.03107754486976,-89.42398575501326
500 S. Park St.,"500 S Park St, Madison, Wisconsin, 53715",43.06196292233757,-89.40091750799587
300 block S. Park St.,"300 N Park St, Madison, Wisconsin, 53715",43.072169736321214,-89.40085597644314
4600 block Judy Lane,"4600 Judy Ln, Madison, Wisconsin, 53704",43.14371621032634,-89.3805093985047
N. Wickham Court,"N Wickham Ct, Madison, Wisconsin, 53711",43.03021965307933,-89.49838827067836
802 W. Badger Rd.,"802 W Badger Rd, Madison, Wisconsin, 53713",43.03853350100962,-89.39481836551454
