Address,AddrCoor,Latitude,Longitude
3700 block Speedway Rd.,"3700 Speedway Rd, Madison, Wisconsin, 53705",43.06256466818918,-89.43635358724565
3000 Block of Darbo Drive,"3000 Darbo Dr, Madison, Wisconsin, 53714",43.1035970669437,-89.34085016418408
1129 S Park St,"1129 S Park St, Madison, Wisconsin, 53715",43.054272565093136,-89.39656452856498
5700 block Russett Road,"5700 Russett Rd, Madison, Wisconsin, 53711",43.03307183005276,-89.4770388931459
Verona Road near Midvale Blvd.,"Verona Rd, Madison, Wisconsin, 53711",43.02903078595674,-89.46358764085537
4400 Doe Crossing,"4400 Doe Crossing Trl, Madison, Wisconsin, 53704",43.14054361022916,-89.35970387575924
3030 Darbo Drive (Salvation Army),"3030 Darbo Dr, Madison, Wisconsin, 53714",43.10351748268775,-89.33936897155058
N. Park Street,"N Park St, Madison, Wisconsin, 53715",43.07316024153235,-89.4006400193296
1800 block Helene Pky,"1800 Helene Pkwy, Madison, Wisconsin, 53711",43.03498170430142,-89.45290679569857
500 block Oak Street,"500 Oak St, Madison, Wisconsin, 53704",43.105202118821246,-89.3431242456311
2201 S. Park St,"2201 S Park St, Madison, Wisconsin, 53713",43.041473999999994,-89.39391385688754
311 East Campus Mall (Walgreens),Walgreens,43.07221000000004,-89.39899999999994
400 block N. Lake St.,"400 N Lake St, Madison, Wisconsin, 53706",43.07319526220921,-89.39747379249184
1821 S. Park St,"1821 S Park St, Madison, Wisconsin, 53713",43.0474311618097,-89.39393445123817
Brule Street,"Brule St, Madison, Wisconsin, 53717",43.06821874479809,-89.5188207330888
"1300 blk. Debra La,","1300 Debra Ln, Madison, Wisconsin, 53704",43.147424156152255,-89.37374604625221
500 block Pine Street,"500 Pine St, Madison, Wisconsin, 53715",43.050921406894105,-89.3914894068941
3300 Clover Ln,"3300 Clove Dr, Madison, Wisconsin, 53704",43.139624287938204,-89.31880354098053
3030 Darbo Drive (Salvation Army),"3030 Darbo Dr, Madison, Wisconsin, 53714",43.10351748268775,-89.33936897155058
N. Marquette St.,"N Marquette St, Madison, Wisconsin, 53704",43.10218691212913,-89.34149448446914
3000 block E. Washington Ave.,"3000 E Washington Ave, Madison, Wisconsin, 53704",43.10385960382309,-89.34308214288689
2500 Block East Johnson St,"2500 E Johnson St, Madison, Wisconsin, 53704",43.1019962056488,-89.35215466319171
617 North Short Dr. (Brittingham Park),"617 N Shore Dr, Madison, Wisconsin, 53703",43.06523254206807,-89.38899369646285
131 East Towne Mall (Gordmans),Gordmans,43.12640000000005,-89.30368999999996
2302 Packers Ave. (Villa Tap),"2302 Packers Ave, Madison, Wisconsin, 53704",43.12332757507647,-89.35521560646872
2500 blk. Whitlock Rd,"2500 Whitlock Rd, Madison, Wisconsin, 53719",43.02622730892293,-89.50431370985117
452 State Street (Peace Park),"452 State St, Madison, Wisconsin, 53703",43.07483149711446,-89.39266761697164
Fair Oaks Ave,"S Fair Oaks Ave, Madison, Wisconsin, 53704",43.09555598452886,-89.3384438559333
724 S Gammon Rd (New Town Pub),"724 S Gammon Rd, Madison, Wisconsin, 53719",43.04943830835591,-89.50326958540556
5700 block Balsam Rd.,"5700 Balsam Rd, Madison, Wisconsin, 53711",43.03075300854579,-89.47860472210472
500 blk Moorland Rd.,"500 Moorland Rd, Madison, Wisconsin, 53713",43.03566947146069,-89.37806009605522
1600 block Troy Dr.,"1600 Troy Dr, Madison, Wisconsin, 53704",43.13367529731573,-89.36818780586826
300 block N. Mills St.,"300 S Mills St, Madison, Wisconsin, 53715",43.0641485055138,-89.40409755091461
Dane St. @ Park St.,"Dane St & S Park St, Madison, Wisconsin, 53713",43.043094,-89.39394
5800 block Raymond Rd.,"5800 Raymond Rd, Madison, Wisconsin, 53711",43.032039382767394,-89.47987649999999
5722 Russett road,"5722 Russett Rd, Madison, Wisconsin, 53711",43.03282339497357,-89.4784726408621
8100 blk. Mayo Dr.,"8100 Mayo Dr, Madison, Wisconsin, 53719",43.0329834994784,-89.52506545878295
1100 block Williamson Street,"1100 Williamson St, Madison, Wisconsin, 53703",43.082079076234756,-89.36611444480009
4300 Britta Parkway,"4300 Britta Pkwy, Madison, Wisconsin, 53711",43.03431313810813,-89.4486424074097
4000 block Highway 30,"4000 W Madison Blvd, Franklin, Wisconsin, 53132",42.91305059528024,-87.96704734093396
1754 Thierer Rd. (Motel 6),Motel 6,43.12277997388793,-89.31320005554247
4628 E. Washington Ave. (Chiptole restaurant),Chipotle,43.13030006275595,-89.30567004111573
1700 blk Blossom La.,"1700 Blossom Ln, Madison, Wisconsin, 53716",43.07445612133107,-89.3087562299064
2300 block Independence Lane,"2300 Independence Ln, Madison, Wisconsin, 53704",43.12900771724209,-89.3096644697541
5800 Block Balsam Road,"5800 Balsam Rd, Madison, Wisconsin, 53711",43.03091501625706,-89.47982823664155
2827 E. Washington Ave. (Simple Communications),"2827 E Washington Ave, Madison, Wisconsin, 53704",43.10244062138638,-89.34592043432994
2100 block Fisher St.,"2100 Fisher St, Madison, Wisconsin, 53713",43.04294760322378,-89.39191918715007
4600 block Atticus Way,"4600 Atticus Way, Madison, Wisconsin, 53711",43.03372900795071,-89.45517080693374
Northport Dr. & Dryden Dr.,"Northport Dr & Dryden Dr, Madison, Wisconsin, 53704",43.12810799999999,-89.359614
1600 block Fordem Ave.,"1600 Fordem Ave, Madison, Wisconsin, 53704",43.093421417347614,-89.36370241723306
2300 block Carling Dr.,"2300 Carling Dr, Madison, Wisconsin, 53711",43.02835881093745,-89.46130903609665
1400 block Lucy Lane,"1400 Lucy Ln, Madison, Wisconsin, 53711",43.038054957389285,-89.49094938639219
2100 Block of East Washington Avenue,"2100 E Washington Ave, Madison, Wisconsin, 53704",43.09501307106574,-89.355769631023
2600 Block S. Stoughton Rd,"2600 S Stoughton Rd, Madison, Wisconsin, 53716",43.060110686203885,-89.30997179303671
500 Blk Northport Dr.,"500 Northport Dr, Madison, Wisconsin, 53704",43.14078500988533,-89.39029684561315
Fisher Baird Neighborhood,"Madison, Nashville, Tennessee",36.269750000000045,-86.71052999999995
2300 Carling Dr.,"2300 Carling Dr, Madison, Wisconsin, 53711",43.02835881093745,-89.46130903609665
6700 block of Schroeder Rd.,"6700 Schroeder Rd, Madison, Wisconsin, 53711",43.046331401027025,-89.49789674864265
Park St/Spring St,"N Park St & Spring St, Madison, Wisconsin, 53715",43.06932899999999,-89.400861
400 West Washington Avenue,"400 W Washington Ave, Madison, Wisconsin, 53703",43.07137058905746,-89.3889737165333
3100 block Emmet St.,"3100 Emmet St, Madison, Wisconsin, 53704",43.09560878518516,-89.33832206731398
400 block N. Frances St.,"400 N Frances St, Madison, Wisconsin, 53703",43.07317826673804,-89.39587524006424
3300 blk. Chicago Av,"3300 Chicago Ave, Madison, Wisconsin, 53714",43.10168805662836,-89.33315874489264
2900 block N. Sherman Ave. (Warner Park basketball courts),"2900 N Sherman Ave, Madison, Wisconsin, 53704",43.12639672110406,-89.36364516212541
2200 block S. Thompson Dr.,"2200 S Thompson Dr, Madison, Wisconsin, 53716",43.06641678930484,-89.28393043753039
N. Hillside Terrace,"N Hillside Ter, Madison, Wisconsin, 53705",43.07008986607024,-89.44867867543014
1798 Thierer Rd. (Denny's),Denny's,43.12333998110126,-89.31395001558055
600 University Avenue,"600 University Ave, Madison, Wisconsin, 53715",43.07319806181074,-89.39589774318647
10 blk. E. Wilson St,"10 E Wilson St, Madison, Wisconsin, 53703",43.072697271444845,-89.3811938547159
2800 block E. Washington Ave.,"2800 E Washington Ave, Madison, Wisconsin, 53704",43.102752013747825,-89.34578270637583
West Towne Mall,West Towne Mall,43.06016000000005,-89.50782999999996
3600 block of Kipling Dr,"3600 Kipling Dr, Madison, Wisconsin, 53704",43.13292427232273,-89.35670778171401
915 W. Beltline Hwy (Kings Inn),"915 W Beltline Hwy, Madison, Wisconsin, 53713",43.03893023558236,-89.38409422322437
Linda Vista Rd at Spaanem Ave,"Linda Vista Rd & Spaanem Ave, Madison, Wisconsin, 53716",43.06393800000001,-89.31573
1800 S. Park Street,"1800 S Park St, Madison, Wisconsin, 53713",43.04699944463039,-89.39417907097884
700-728 S. Gammon Rd (Highland Gates Retail Center),"728 S Gammon Rd, Madison, Wisconsin, 53719",43.04877300000001,-89.50328961815414
Balsam Road area,"Balsam Rd, Madison, Wisconsin, 53711",43.03084426582858,-89.48076306399948
Anniversary Lane,"Anniversary Ln, Madison, Wisconsin, 53704",43.13516089540211,-89.30441278030803
300 Cottage Grove Rd. (Packers Inn),"300 Cottage Grove Rd, Madison, Wisconsin, 53716",43.08377646047075,-89.32141230544174
Wittwer Rd.,"Wittwer Rd, Madison, Wisconsin, 53714",43.100662181518004,-89.31105234902464
3700 block Karstens Dr.,"3700 W Karstens Dr, Madison, Wisconsin, 53704",43.13382789721914,-89.38734466997425
Winchester St.,"Winchester St, Madison, Wisconsin, 53704",43.12121356489817,-89.36161398164388
2700 block E. Washington Ave.,"2700 E Washington Ave, Madison, Wisconsin, 53704",43.10198812027746,-89.34747317630432
508 E. Wilson St. (Come Back Inn parking lot),Come Back In,43.07600003332556,-89.37653008050077
1800 block South Whitney Way,"1800 S Whitney Way, Madison, Wisconsin, 53711",43.03373574044849,-89.4773228759177
200 block Clyde Gallagher,"200 Clyde Gallagher Ave, Madison, Wisconsin, 53704",43.101385538548136,-89.33922398480591
N. Thompson Dr.,"N Thompson Dr, Madison, Wisconsin, 53704",43.11359631911023,-89.29610241779805
1100 block Moorland Rd.,"1100 Moorland Rd, Madison, Wisconsin, 53713",43.03369941852054,-89.36669975517842
200 block Wisconsin Ave. (outside United Methodist Church),"200 Wisconsin Ave, Madison, Wisconsin, 53703",43.07616495490801,-89.38623716400795
400 block W. Johnson St.,"400 E Johnson St, Madison, Wisconsin, 53703",43.0796583567774,-89.38316291664646
1525 N Stoughton Rd (Club LaMark),"1525 N Stoughton Rd, Madison, Wisconsin, 53704",43.11890176464308,-89.32466423212561
5 Applegate Ct. (Club 5),"5 Applegate Ct, Madison, Wisconsin, 53713",43.033003535634116,-89.4069315
Raymond Rd. @ McKenna Blvd.,"Raymond Rd & McKenna Blvd, Madison, Wisconsin, 53711",43.03172699999999,-89.4969405
Raymond Rd.,"Raymond Rd, Madison, Wisconsin, 53719",43.02739239906176,-89.51478936197029
1810 Roth St (Locker Room Bar & Grill),Locker Room Sports Bar & Grill,43.11128006275594,-89.36026997720606
4300 block Britta Dr.,"4300 Britta Dr, Madison, Wisconsin, 53711",43.03464846768411,-89.45116950173076
3500 Packers Ave. (possible location),"3500 Packers Ave, Madison, Wisconsin, 53704",43.132179113002294,-89.355401417102
53 West Towne Mall,"53 West Towne Mall, Madison, Wisconsin, 53719",43.06000241850576,-89.50661959742708
115 King Street (Majestic Theatre),Majestic Theater,43.074629992209786,-89.38076006217891
1500 Blk of Troy Dr,"1500 Troy Dr, Madison, Wisconsin, 53704",43.13444460782504,-89.37080289901388
4700 block of Cottage Grove Road,"4700 Cottage Grove Rd, Madison, Wisconsin, 53716",43.084408258292946,-89.30046767099313
